{
  "countries": [
    {
      "id": "UNKNOWN",
      "name": "Nepoznato",
      "flag": "â“",
      "region": "Nepoznato",
      "coffeeProduction": "Porijeklo kave nije poznato",
      "varieties": []
    },
    {
      "id": "BR",
      "name": "Brazil",
      "flag": "ğŸ‡§ğŸ‡·",
      "region": "JuÅ¾na Amerika",
      "coffeeProduction": "NajveÄ‡i proizvoÄ‘aÄ kave na svijetu",
      "varieties": [
        "Bourbon",
        "Catuai",
        "Mundo Novo"
      ]
    },
    {
      "id": "ET",
      "name": "Etiopija",
      "flag": "ğŸ‡ªğŸ‡¹",
      "region": "Afrika",
      "coffeeProduction": "Domovina kave",
      "varieties": [
        "Yirgacheffe",
        "Sidamo",
        "Harrar"
      ]
    },
    {
      "id": "CO",
      "name": "Kolumbija",
      "flag": "ğŸ‡¨ğŸ‡´",
      "region": "JuÅ¾na Amerika",
      "coffeeProduction": "TreÄ‡i najveÄ‡i proizvoÄ‘aÄ",
      "varieties": [
        "Caturra",
        "Castillo",
        "Typica"
      ]
    },
    {
      "id": "VN",
      "name": "Vijetnam",
      "flag": "ğŸ‡»ğŸ‡³",
      "region": "Azija",
      "coffeeProduction": "Drugi najveÄ‡i proizvoÄ‘aÄ",
      "varieties": [
        "Robusta",
        "Catimor"
      ]
    },
    {
      "id": "KE",
      "name": "Kenija",
      "flag": "ğŸ‡°ğŸ‡ª",
      "region": "Afrika",
      "coffeeProduction": "Poznata po AA gradaciji",
      "varieties": [
        "SL28",
        "SL34",
        "Ruiru 11"
      ]
    },
    {
      "id": "GT",
      "name": "Gvatemala",
      "flag": "ğŸ‡¬ğŸ‡¹",
      "region": "Srednja Amerika",
      "coffeeProduction": "Vulkanska kava visoke kvalitete",
      "varieties": [
        "Bourbon",
        "Caturra",
        "Typica"
      ]
    },
    {
      "id": "CR",
      "name": "Kostarika",
      "flag": "ğŸ‡¨ğŸ‡·",
      "region": "Srednja Amerika",
      "coffeeProduction": "100% Arabica zakonom",
      "varieties": [
        "Caturra",
        "Catuai",
        "Geisha"
      ]
    },
    {
      "id": "ID",
      "name": "Indonezija",
      "flag": "ğŸ‡®ğŸ‡©",
      "region": "Azija",
      "coffeeProduction": "Poznat po Kopi Luwak",
      "varieties": [
        "Sumatra Mandheling",
        "Java",
        "Sulawesi"
      ]
    },
    {
      "id": "HN",
      "name": "Honduras",
      "flag": "ğŸ‡­ğŸ‡³",
      "region": "Srednja Amerika",
      "coffeeProduction": "Å esti najveÄ‡i proizvoÄ‘aÄ kave na svijetu",
      "varieties": [
        "Bourbon",
        "Catuai",
        "Pacas",
        "Lempira"
      ]
    },
    {
      "id": "IN",
      "name": "Indija",
      "flag": "ğŸ‡®ğŸ‡³",
      "region": "Azija",
      "coffeeProduction": "Sedmi najveÄ‡i proizvoÄ‘aÄ, poznata po monsunskoj kavi",
      "varieties": [
        "Monsooned Malabar",
        "Mysore",
        "Kent",
        "S795"
      ]
    },
    {
      "id": "mix",
      "name": "Mix",
      "flag": "ğŸŒ",
      "region": "Svjetska",
      "coordinates": {
        "lat": 0,
        "lng": 0
      },
      "coffeeProduction": "",
      "varieties": []
    },
    {
      "id": "UG",
      "name": "Uganda",
      "flag": "ğŸ‡ºğŸ‡¬",
      "region": "Afrika",
      "coordinates": {
        "lat": 0,
        "lng": 0
      },
      "coffeeProduction": "",
      "varieties": []
    },
    {
      "id": "MX",
      "name": "Meksiko",
      "flag": "ğŸ‡²ğŸ‡½",
      "region": "Srednja Amerika",
      "coordinates": {
        "lat": 0,
        "lng": 0
      },
      "coffeeProduction": "",
      "varieties": []
    }
  ]
}